{"hostedData": [{"extraCriteria": "", "columnNames": [], "tableName": "mqap.ntpois"}], "resultsCount": 10, "origin": {"dragPoint": false, "displayLatLng": {"lng": -81.343834, "lat": 29.90265}, "adminArea4": "St. Johns County", "adminArea5": "St. Augustine", "postalCode": "32084", "adminArea1": "US", "adminArea3": "FL", "type": "s", "sideOfStreet": "N", "geocodeQualityCode": "Z1XAA", "adminArea4Type": "County", "linkId": 286280595, "street": "", "adminArea5Type": "City", "geocodeQuality": "ZIP", "adminArea1Type": "Country", "adminArea3Type": "State", "latLng": {"lng": -81.343834, "lat": 29.90265}}, "totalPages": 1, "options": {"kmlStyleUrl": "http://search-b2b.cloud.mapquest.com/kml-default.kml", "shapeFormat": "raw", "maxMatches": 10, "pageSize": 10, "ambiguities": false, "units": "m", "currentPage": 1, "radius": 10}, "searchResults": [{"distanceUnit": "m", "distance": 0, "name": "Zales Jewelers Outlet", "sourceName": "mqap.ntpois", "resultNumber": 1, "fields": {"mqap_id": "7d30ecae-c579-42d0-8b32-2f3ad996ec97", "country": "US", "address": "500 Outlet Mall Blvd", "lng": -81.343834, "city": "Saint Augustine", "group_sic_code_name_ext": "Jewelers", "group_sic_code": "594409", "side_of_street": "N", "disp_lng": -81.343834, "phone": "+(1)-(904)-8249117", "group_sic_code_ext": "594409", "group_sic_code_name": "Jewelers", "name": "Zales Jewelers Outlet", "disp_lat": 29.90265, "state": "FL", "id": "362035841", "postal_code": "32084", "mqap_geography": {"latLng": {"lng": -81.343834, "lat": 29.90265}}, "lat": 29.90265}, "key": "7d30ecae-c579-42d0-8b32-2f3ad996ec97", "shapePoints": [29.90265, -81.343834]}, {"distanceUnit": "m", "distance": 0, "name": "Disney Character Premier", "sourceName": "mqap.ntpois", "resultNumber": 2, "fields": {"mqap_id": "60b2fa37-9285-4f42-b68a-be349187c332", "country": "US", "address": "500 Outlet Mall Blvd", "lng": -81.343834, "city": "Saint Augustine", "group_sic_code_name_ext": "Factory Outlets", "group_sic_code": "599931", "side_of_street": "N", "disp_lng": -81.343834, "phone": "+(1)-(904)-8290359", "group_sic_code_ext": "599931", "group_sic_code_name": "Factory Outlets", "name": "Disney Character Premier", "disp_lat": 29.90265, "state": "FL", "id": "367913464", "postal_code": "32084", "mqap_geography": {"latLng": {"lng": -81.343834, "lat": 29.90265}}, "lat": 29.90265}, "key": "60b2fa37-9285-4f42-b68a-be349187c332", "shapePoints": [29.90265, -81.343834]}, {"distanceUnit": "m", "distance": 0, "name": "Fountain of Youth Park", "sourceName": "mqap.ntpois", "resultNumber": 3, "fields": {"mqap_id": "6fe3bda5-85a4-410e-802a-edcd4146a1e5", "country": "US", "address": "", "lng": -81.343834, "city": "St Augustine", "group_sic_code_name_ext": "Parks", "group_sic_code": "799951", "side_of_street": "N", "disp_lng": -81.343834, "phone": "", "group_sic_code_ext": "799951", "group_sic_code_name": "Parks", "name": "Fountain of Youth Park", "disp_lat": 29.90265, "state": "FL", "id": "367375167", "postal_code": "32084", "mqap_geography": {"latLng": {"lng": -81.343834, "lat": 29.90265}}, "lat": 29.90265}, "key": "6fe3bda5-85a4-410e-802a-edcd4146a1e5", "shapePoints": [29.90265, -81.343834]}, {"distanceUnit": "m", "distance": 0, "name": "Lucky Brand Outlet", "sourceName": "mqap.ntpois", "resultNumber": 4, "fields": {"mqap_id": "b66a43d3-4a41-42cb-8e86-d5bc8b1b94d8", "country": "US", "address": "500 Outlet Mall Blvd", "lng": -81.343834, "city": "Saint Augustine", "group_sic_code_name_ext": "Food Markets", "group_sic_code": "541101", "side_of_street": "N", "disp_lng": -81.343834, "phone": "+(1)-(904)-8199909", "group_sic_code_ext": "541101", "group_sic_code_name": "Food Markets", "name": "Lucky Brand Outlet", "disp_lat": 29.90265, "state": "FL", "id": "367915986", "postal_code": "32084", "mqap_geography": {"latLng": {"lng": -81.343834, "lat": 29.90265}}, "lat": 29.90265}, "key": "b66a43d3-4a41-42cb-8e86-d5bc8b1b94d8", "shapePoints": [29.90265, -81.343834]}, {"distanceUnit": "m", "distance": 0, "name": "Talbots", "sourceName": "mqap.ntpois", "resultNumber": 5, "fields": {"mqap_id": "37d93f3f-b302-4599-ac64-37e637734cab", "country": "US", "address": "500 Outlet Mall Blvd", "lng": -81.343834, "city": "Saint Augustine", "group_sic_code_name_ext": "Clothing Retail", "group_sic_code": "565101", "side_of_street": "N", "disp_lng": -81.343834, "phone": "+(1)-(904)-8199789", "group_sic_code_ext": "565101", "group_sic_code_name": "Clothing Retail", "name": "Talbots", "disp_lat": 29.90265, "state": "FL", "id": "368824643", "postal_code": "32084", "mqap_geography": {"latLng": {"lng": -81.343834, "lat": 29.90265}}, "lat": 29.90265}, "key": "37d93f3f-b302-4599-ac64-37e637734cab", "shapePoints": [29.90265, -81.343834]}, {"distanceUnit": "m", "distance": 0, "name": "China Max", "sourceName": "mqap.ntpois", "resultNumber": 6, "fields": {"mqap_id": "fffb71f5-6a8f-4aaf-aee7-cdf6000de904", "country": "US", "address": "500 Outlet Mall Blvd", "lng": -81.343834, "city": "Saint Augustine", "group_sic_code_name_ext": "", "group_sic_code": "", "side_of_street": "N", "disp_lng": -81.343834, "phone": "+(1)-(904)-8279803", "group_sic_code_ext": "", "group_sic_code_name": "", "name": "China Max", "disp_lat": 29.90265, "state": "FL", "id": "361592973", "postal_code": "32084", "mqap_geography": {"latLng": {"lng": -81.343834, "lat": 29.90265}}, "lat": 29.90265}, "key": "fffb71f5-6a8f-4aaf-aee7-cdf6000de904", "shapePoints": [29.90265, -81.343834]}, {"distanceUnit": "m", "distance": 0, "name": "Rocky Mountain Chocolate Factory", "sourceName": "mqap.ntpois", "resultNumber": 7, "fields": {"mqap_id": "70b9eb86-a911-4203-8eba-576f948c28c5", "country": "US", "address": "500 Outlet Mall Blvd", "lng": -81.343834, "city": "Saint Augustine", "group_sic_code_name_ext": "Miscellaneous Food Stores", "group_sic_code": "549999", "side_of_street": "N", "disp_lng": -81.343834, "phone": "+(1)-(904)-8271545", "group_sic_code_ext": "549999", "group_sic_code_name": "Miscellaneous Food Stores", "name": "Rocky Mountain Chocolate Factory", "disp_lat": 29.90265, "state": "FL", "id": "361549176", "postal_code": "32084", "mqap_geography": {"latLng": {"lng": -81.343834, "lat": 29.90265}}, "lat": 29.90265}, "key": "70b9eb86-a911-4203-8eba-576f948c28c5", "shapePoints": [29.90265, -81.343834]}, {"distanceUnit": "m", "distance": 0, "name": "Evie's Cottage", "sourceName": "mqap.ntpois", "resultNumber": 8, "fields": {"mqap_id": "6327041b-e0db-4f82-99e8-ea42dc188f56", "country": "US", "address": "500 Outlet Mall Blvd", "lng": -81.343834, "city": "Saint Augustine", "group_sic_code_name_ext": "Gift Shops", "group_sic_code": "594712", "side_of_street": "N", "disp_lng": -81.343834, "phone": "+(1)-(904)-8291955", "group_sic_code_ext": "594712", "group_sic_code_name": "Gift Shops", "name": "Evie's Cottage", "disp_lat": 29.90265, "state": "FL", "id": "362222049", "postal_code": "32084", "mqap_geography": {"latLng": {"lng": -81.343834, "lat": 29.90265}}, "lat": 29.90265}, "key": "6327041b-e0db-4f82-99e8-ea42dc188f56", "shapePoints": [29.90265, -81.343834]}, {"distanceUnit": "m", "distance": 0, "name": "Mount Pleasant Cemetery", "sourceName": "mqap.ntpois", "resultNumber": 9, "fields": {"mqap_id": "c8b84bb7-1d44-4710-b889-358185968a77", "country": "US", "address": "", "lng": -81.343834, "city": "", "group_sic_code_name_ext": "", "group_sic_code": "", "side_of_street": "N", "disp_lng": -81.343834, "phone": "", "group_sic_code_ext": "", "group_sic_code_name": "", "name": "Mount Pleasant Cemetery", "disp_lat": 29.90265, "state": "FL", "id": "368104964", "postal_code": "32084", "mqap_geography": {"latLng": {"lng": -81.343834, "lat": 29.90265}}, "lat": 29.90265}, "key": "c8b84bb7-1d44-4710-b889-358185968a77", "shapePoints": [29.90265, -81.343834]}, {"distanceUnit": "m", "distance": 0, "name": "Guess", "sourceName": "mqap.ntpois", "resultNumber": 10, "fields": {"mqap_id": "cee4c6de-71ab-449a-be88-5a7bc12bd453", "country": "US", "address": "500 Outlet Mall Blvd", "lng": -81.343834, "city": "Saint Augustine", "group_sic_code_name_ext": "Clothing Retail", "group_sic_code": "565101", "side_of_street": "N", "disp_lng": -81.343834, "phone": "+(1)-(904)-8252154", "group_sic_code_ext": "565101", "group_sic_code_name": "Clothing Retail", "name": "Guess", "disp_lat": 29.90265, "state": "FL", "id": "368763317", "postal_code": "32084", "mqap_geography": {"latLng": {"lng": -81.343834, "lat": 29.90265}}, "lat": 29.90265}, "key": "cee4c6de-71ab-449a-be88-5a7bc12bd453", "shapePoints": [29.90265, -81.343834]}], "info": {"copyright": {"imageAltText": "\u00a9 2021 MapQuest, Inc.", "imageUrl": "http://api.mqcdn.com/res/mqlogo.gif", "text": "\u00a9 2021 MapQuest, Inc."}, "messages": [], "statusCode": 0}}