{"hostedData": [{"extraCriteria": "", "columnNames": [], "tableName": "mqap.ntpois"}], "resultsCount": 10, "origin": {"dragPoint": false, "displayLatLng": {"lng": -83.404535, "lat": 41.95112}, "adminArea4": "Monroe County", "adminArea5": "Monroe", "postalCode": "48162", "adminArea1": "US", "adminArea3": "MI", "type": "s", "sideOfStreet": "N", "geocodeQualityCode": "Z1XAA", "adminArea4Type": "County", "linkId": 286287702, "street": "", "adminArea5Type": "City", "geocodeQuality": "ZIP", "adminArea1Type": "Country", "adminArea3Type": "State", "latLng": {"lng": -83.404535, "lat": 41.95112}}, "totalPages": 1, "options": {"kmlStyleUrl": "http://search-b2b.cloud.mapquest.com/kml-default.kml", "shapeFormat": "raw", "maxMatches": 10, "pageSize": 10, "ambiguities": false, "units": "m", "currentPage": 1, "radius": 10}, "searchResults": [{"distanceUnit": "m", "distance": 0, "name": "Pilot Travel Center #284", "sourceName": "mqap.ntpois", "resultNumber": 1, "fields": {"mqap_id": "ba9e1310-acd9-43f6-a91b-d35b81a4d0b2", "country": "US", "address": "I-75 & Exit 18", "lng": -83.404535, "city": "Monroe", "group_sic_code_name_ext": "Scales Public", "group_sic_code": "478502", "side_of_street": "N", "disp_lng": -83.404535, "phone": "+(1)-(734)-4573500", "group_sic_code_ext": "478502", "group_sic_code_name": "Scales Public", "name": "Pilot Travel Center #284", "disp_lat": 41.95112, "state": "MI", "id": "362746182", "postal_code": "48162", "mqap_geography": {"latLng": {"lng": -83.404535, "lat": 41.95112}}, "lat": 41.95112}, "key": "ba9e1310-acd9-43f6-a91b-d35b81a4d0b2", "shapePoints": [41.95112, -83.404535]}, {"distanceUnit": "m", "distance": 0, "name": "TA Monroe", "sourceName": "mqap.ntpois", "resultNumber": 2, "fields": {"mqap_id": "0420868e-6475-4488-bf50-28559a583786", "country": "US", "address": "I-75 Exit 15", "lng": -83.404535, "city": "Monroe", "group_sic_code_name_ext": "Scales Public", "group_sic_code": "478502", "side_of_street": "N", "disp_lng": -83.404535, "phone": "+(1)-(734)-3847952", "group_sic_code_ext": "478502", "group_sic_code_name": "Scales Public", "name": "TA Monroe", "disp_lat": 41.95112, "state": "MI", "id": "367066243", "postal_code": "48162", "mqap_geography": {"latLng": {"lng": -83.404535, "lat": 41.95112}}, "lat": 41.95112}, "key": "0420868e-6475-4488-bf50-28559a583786", "shapePoints": [41.95112, -83.404535]}, {"distanceUnit": "m", "distance": 0, "name": "McIntyre Cemetery", "sourceName": "mqap.ntpois", "resultNumber": 3, "fields": {"mqap_id": "1f044306-8dba-46c7-bfdb-3de4ffbf8485", "country": "US", "address": "", "lng": -83.404535, "city": "", "group_sic_code_name_ext": "", "group_sic_code": "", "side_of_street": "N", "disp_lng": -83.404535, "phone": "", "group_sic_code_ext": "", "group_sic_code_name": "", "name": "McIntyre Cemetery", "disp_lat": 41.95112, "state": "MI", "id": "362811548", "postal_code": "48162", "mqap_geography": {"latLng": {"lng": -83.404535, "lat": 41.95112}}, "lat": 41.95112}, "key": "1f044306-8dba-46c7-bfdb-3de4ffbf8485", "shapePoints": [41.95112, -83.404535]}, {"distanceUnit": "m", "distance": 0, "name": "Doty Cemetery", "sourceName": "mqap.ntpois", "resultNumber": 4, "fields": {"mqap_id": "7e2f72fe-5a43-4f99-a1a0-190a80d9df11", "country": "US", "address": "", "lng": -83.404535, "city": "", "group_sic_code_name_ext": "", "group_sic_code": "", "side_of_street": "N", "disp_lng": -83.404535, "phone": "", "group_sic_code_ext": "", "group_sic_code_name": "", "name": "Doty Cemetery", "disp_lat": 41.95112, "state": "MI", "id": "361786802", "postal_code": "48162", "mqap_geography": {"latLng": {"lng": -83.404535, "lat": 41.95112}}, "lat": 41.95112}, "key": "7e2f72fe-5a43-4f99-a1a0-190a80d9df11", "shapePoints": [41.95112, -83.404535]}, {"distanceUnit": "m", "distance": 0, "name": "Saint Joseph Cemetery", "sourceName": "mqap.ntpois", "resultNumber": 5, "fields": {"mqap_id": "4987d43f-acf9-4002-9078-e59815509a69", "country": "US", "address": "", "lng": -83.404535, "city": "Monroe", "group_sic_code_name_ext": "", "group_sic_code": "", "side_of_street": "N", "disp_lng": -83.404535, "phone": "", "group_sic_code_ext": "", "group_sic_code_name": "", "name": "Saint Joseph Cemetery", "disp_lat": 41.95112, "state": "MI", "id": "368860336", "postal_code": "48162", "mqap_geography": {"latLng": {"lng": -83.404535, "lat": 41.95112}}, "lat": 41.95112}, "key": "4987d43f-acf9-4002-9078-e59815509a69", "shapePoints": [41.95112, -83.404535]}, {"distanceUnit": "m", "distance": 0.1187, "name": "Custer Estates", "sourceName": "mqap.ntpois", "resultNumber": 6, "fields": {"mqap_id": "273e3188-7d0c-4566-af93-2f5938f8eb9a", "country": "US", "address": "1669 Mall Rd", "lng": -83.403245, "city": "Monroe", "group_sic_code_name_ext": "Real Estate Agents", "group_sic_code": "653118", "side_of_street": "L", "disp_lng": -83.403245, "phone": "+(1)-(734)-3840044", "group_sic_code_ext": "653118", "group_sic_code_name": "Real Estate Agents", "name": "Custer Estates", "disp_lat": 41.952545, "state": "MI", "id": "290746346", "postal_code": "48162", "mqap_geography": {"latLng": {"lng": -83.403245, "lat": 41.952545}}, "lat": 41.952545}, "key": "273e3188-7d0c-4566-af93-2f5938f8eb9a", "shapePoints": [41.952545, -83.403245]}, {"distanceUnit": "m", "distance": 0.1648, "name": "Landings At Cedar Creek", "sourceName": "mqap.ntpois", "resultNumber": 7, "fields": {"mqap_id": "a797cfe8-6414-4e07-8f24-c246cb6d7422", "country": "US", "address": "1055 Cedar Creek Dr", "lng": -83.406536, "city": "Monroe", "group_sic_code_name_ext": "", "group_sic_code": "", "side_of_street": "L", "disp_lng": -83.406325, "phone": "+(1)-(734)-2429200", "group_sic_code_ext": "", "group_sic_code_name": "", "name": "Landings At Cedar Creek", "disp_lat": 41.949214, "state": "MI", "id": "284383584", "postal_code": "48162", "mqap_geography": {"latLng": {"lng": -83.406536, "lat": 41.949257}}, "lat": 41.949257}, "key": "a797cfe8-6414-4e07-8f24-c246cb6d7422", "shapePoints": [41.949257, -83.406536]}, {"distanceUnit": "m", "distance": 0.26, "name": "Ruby Tuesday", "sourceName": "mqap.ntpois", "resultNumber": 8, "fields": {"mqap_id": "5d2fd0e2-d271-4f19-b943-8381d553aad0", "country": "US", "address": "2071 N Telegraph Rd", "lng": -83.399599, "city": "Monroe", "group_sic_code_name_ext": "", "group_sic_code": "", "side_of_street": "L", "disp_lng": -83.400337, "phone": "+(1)-(734)-4573169", "group_sic_code_ext": "", "group_sic_code_name": "", "name": "Ruby Tuesday", "disp_lat": 41.950577, "state": "MI", "id": "6352773", "postal_code": "48162", "mqap_geography": {"latLng": {"lng": -83.399599, "lat": 41.950335}}, "lat": 41.950335}, "key": "5d2fd0e2-d271-4f19-b943-8381d553aad0", "shapePoints": [41.950335, -83.399599]}, {"distanceUnit": "m", "distance": 0.2634, "name": "Benesh", "sourceName": "mqap.ntpois", "resultNumber": 9, "fields": {"mqap_id": "3a7f3075-11e2-41bb-a0d2-5fb618479e4c", "country": "US", "address": "1910 N Telegraph Rd", "lng": -83.40056, "city": "Monroe", "group_sic_code_name_ext": "Advertising Marketing", "group_sic_code": "731115", "side_of_street": "R", "disp_lng": -83.40056, "phone": "+(1)-(734)-2424242", "group_sic_code_ext": "731115", "group_sic_code_name": "Advertising Marketing", "name": "Benesh", "disp_lat": 41.94872, "state": "MI", "id": "367688025", "postal_code": "48162", "mqap_geography": {"latLng": {"lng": -83.40056, "lat": 41.94872}}, "lat": 41.94872}, "key": "3a7f3075-11e2-41bb-a0d2-5fb618479e4c", "shapePoints": [41.94872, -83.40056]}, {"distanceUnit": "m", "distance": 0.277, "name": "ALDI", "sourceName": "mqap.ntpois", "resultNumber": 10, "fields": {"mqap_id": "2fb9922f-b61f-48f7-8008-71264c544d0a", "country": "US", "address": "1850 N Telegraph Rd", "lng": -83.400883, "city": "Monroe", "group_sic_code_name_ext": "Food Markets", "group_sic_code": "541101", "side_of_street": "R", "disp_lng": -83.400313, "phone": "", "group_sic_code_ext": "541101", "group_sic_code_name": "Food Markets", "name": "ALDI", "disp_lat": 41.947989, "state": "MI", "id": "262326318", "postal_code": "48162", "mqap_geography": {"latLng": {"lng": -83.400883, "lat": 41.948174}}, "lat": 41.948174}, "key": "2fb9922f-b61f-48f7-8008-71264c544d0a", "shapePoints": [41.948174, -83.400883]}], "info": {"copyright": {"imageAltText": "\u00a9 2021 MapQuest, Inc.", "imageUrl": "http://api.mqcdn.com/res/mqlogo.gif", "text": "\u00a9 2021 MapQuest, Inc."}, "messages": [], "statusCode": 0}}