{"hostedData": [{"extraCriteria": "", "columnNames": [], "tableName": "mqap.ntpois"}], "resultsCount": 10, "origin": {"dragPoint": false, "displayLatLng": {"lng": -149.871788, "lat": 61.21644}, "adminArea4": "Municipality of Anchorage", "adminArea5": "Anchorage", "postalCode": "99501", "adminArea1": "US", "adminArea3": "AK", "type": "s", "sideOfStreet": "N", "geocodeQualityCode": "Z1XAA", "adminArea4Type": "County", "linkId": 286308657, "street": "", "adminArea5Type": "City", "geocodeQuality": "ZIP", "adminArea1Type": "Country", "adminArea3Type": "State", "latLng": {"lng": -149.871788, "lat": 61.21644}}, "totalPages": 1, "options": {"kmlStyleUrl": "http://search-b2b.cloud.mapquest.com/kml-default.kml", "shapeFormat": "raw", "maxMatches": 10, "pageSize": 10, "ambiguities": false, "units": "m", "currentPage": 1, "radius": 10}, "searchResults": [{"distanceUnit": "m", "distance": 0, "name": "Sixth Avenue Garage", "sourceName": "mqap.ntpois", "resultNumber": 1, "fields": {"mqap_id": "9b6e4ef6-6fe6-48e3-a05c-7a38927e8b15", "country": "US", "address": "", "lng": -149.871788, "city": "Anchorage", "group_sic_code_name_ext": "Parking Garages", "group_sic_code": "752102", "side_of_street": "N", "disp_lng": -149.871788, "phone": "", "group_sic_code_ext": "752102", "group_sic_code_name": "Parking Garages", "name": "Sixth Avenue Garage", "disp_lat": 61.21644, "state": "AK", "id": "362819351", "postal_code": "99501", "mqap_geography": {"latLng": {"lng": -149.871788, "lat": 61.21644}}, "lat": 61.21644}, "key": "9b6e4ef6-6fe6-48e3-a05c-7a38927e8b15", "shapePoints": [61.21644, -149.871788]}, {"distanceUnit": "m", "distance": 0.0197, "name": "K Speed Wash", "sourceName": "mqap.ntpois", "resultNumber": 2, "fields": {"mqap_id": "d235b8c8-0767-41f2-a2e2-bfc919086c79", "country": "US", "address": "600 E 6th Ave", "lng": -149.872306, "city": "Anchorage", "group_sic_code_name_ext": "Laundry & Garment Services NEC", "group_sic_code": "721999", "side_of_street": "R", "disp_lng": -149.872305, "phone": "+(1)-(907)-2790731", "group_sic_code_ext": "721999", "group_sic_code_name": "Laundry & Garment Services NEC", "name": "K Speed Wash", "disp_lat": 61.216489, "state": "AK", "id": "289155525", "postal_code": "99501", "mqap_geography": {"latLng": {"lng": -149.872306, "lat": 61.216577}}, "lat": 61.216577}, "key": "d235b8c8-0767-41f2-a2e2-bfc919086c79", "shapePoints": [61.216577, -149.872306]}, {"distanceUnit": "m", "distance": 0.0286, "name": "Advance Til Payday", "sourceName": "mqap.ntpois", "resultNumber": 3, "fields": {"mqap_id": "3045113a-4620-43cf-a73f-8fac6b7db96c", "country": "US", "address": "618 Gambell St", "lng": -149.871017, "city": "Anchorage", "group_sic_code_name_ext": "Currency Exchanges", "group_sic_code": "609901", "side_of_street": "R", "disp_lng": -149.87121, "phone": "+(1)-(907)-6469292", "group_sic_code_ext": "609901", "group_sic_code_name": "Currency Exchanges", "name": "Advance Til Payday", "disp_lat": 61.21626, "state": "AK", "id": "274833144", "postal_code": "99501", "mqap_geography": {"latLng": {"lng": -149.871017, "lat": 61.21626}}, "lat": 61.21626}, "key": "3045113a-4620-43cf-a73f-8fac6b7db96c", "shapePoints": [61.21626, -149.871017]}, {"distanceUnit": "m", "distance": 0.0297, "name": "Top Tier Sales", "sourceName": "mqap.ntpois", "resultNumber": 4, "fields": {"mqap_id": "4d749477-3228-4cc9-a68a-d19ab0a28bab", "country": "US", "address": "606 E 6th Ave", "lng": -149.87263, "city": "Anchorage", "group_sic_code_name_ext": "Cell Phones", "group_sic_code": "599902", "side_of_street": "R", "disp_lng": -149.872629, "phone": "+(1)-(907)-2581017", "group_sic_code_ext": "599902", "group_sic_code_name": "Cell Phones", "name": "Top Tier Sales", "disp_lat": 61.216487, "state": "AK", "id": "367884208", "postal_code": "99501", "mqap_geography": {"latLng": {"lng": -149.87263, "lat": 61.216577}}, "lat": 61.216577}, "key": "4d749477-3228-4cc9-a68a-d19ab0a28bab", "shapePoints": [61.216577, -149.87263]}, {"distanceUnit": "m", "distance": 0.0306, "name": "Land Rover of Anchorage", "sourceName": "mqap.ntpois", "resultNumber": 5, "fields": {"mqap_id": "148f582e-3222-4c8b-8f1b-400ed84a0729", "country": "US", "address": "625 Gambell St", "lng": -149.871017, "city": "Anchorage", "group_sic_code_name_ext": "(All) Auto Dealers", "group_sic_code": "551102", "side_of_street": "L", "disp_lng": -149.870835, "phone": "+(1)-(907)-2576658", "group_sic_code_ext": "551102", "group_sic_code_name": "(All) Auto Dealers", "name": "Land Rover of Anchorage", "disp_lat": 61.2162, "state": "AK", "id": "270615637", "postal_code": "99501", "mqap_geography": {"latLng": {"lng": -149.871017, "lat": 61.2162}}, "lat": 61.2162}, "key": "148f582e-3222-4c8b-8f1b-400ed84a0729", "shapePoints": [61.2162, -149.871017]}, {"distanceUnit": "m", "distance": 0.0432, "name": "Mc Corporation", "sourceName": "mqap.ntpois", "resultNumber": 6, "fields": {"mqap_id": "b95bb4a9-c968-4d08-b2f5-0d0c726842af", "country": "US", "address": "611 Fairbanks St", "lng": -149.873062, "city": "Anchorage", "group_sic_code_name_ext": "House Cleaning", "group_sic_code": "734922", "side_of_street": "L", "disp_lng": -149.872878, "phone": "+(1)-(907)-5655535", "group_sic_code_ext": "734922", "group_sic_code_name": "House Cleaning", "name": "Mc Corporation", "disp_lat": 61.216329, "state": "AK", "id": "12773923", "postal_code": "99501", "mqap_geography": {"latLng": {"lng": -149.873062, "lat": 61.216329}}, "lat": 61.216329}, "key": "b95bb4a9-c968-4d08-b2f5-0d0c726842af", "shapePoints": [61.216329, -149.873062]}, {"distanceUnit": "m", "distance": 0.0522, "name": "Kat Management Services", "sourceName": "mqap.ntpois", "resultNumber": 7, "fields": {"mqap_id": "2a90bb67-f35f-40fc-a847-e9a6d8329f7b", "country": "US", "address": "640 Gambell St", "lng": -149.871017, "city": "Anchorage", "group_sic_code_name_ext": "House Cleaning", "group_sic_code": "734922", "side_of_street": "R", "disp_lng": -149.8712, "phone": "+(1)-(907)-5502821", "group_sic_code_ext": "734922", "group_sic_code_name": "House Cleaning", "name": "Kat Management Services", "disp_lat": 61.215785, "state": "AK", "id": "361740668", "postal_code": "99501", "mqap_geography": {"latLng": {"lng": -149.871017, "lat": 61.215785}}, "lat": 61.215785}, "key": "2a90bb67-f35f-40fc-a847-e9a6d8329f7b", "shapePoints": [61.215785, -149.871017]}, {"distanceUnit": "m", "distance": 0.0522, "name": "The Car Lot", "sourceName": "mqap.ntpois", "resultNumber": 8, "fields": {"mqap_id": "7ff2e829-e8d8-4193-9344-45d800e57d04", "country": "US", "address": "640 Gambell St", "lng": -149.871017, "city": "Anchorage", "group_sic_code_name_ext": "(All) Auto Dealers", "group_sic_code": "551102", "side_of_street": "R", "disp_lng": -149.8712, "phone": "+(1)-(907)-2778830", "group_sic_code_ext": "551102", "group_sic_code_name": "(All) Auto Dealers", "name": "The Car Lot", "disp_lat": 61.215785, "state": "AK", "id": "362125995", "postal_code": "99501", "mqap_geography": {"latLng": {"lng": -149.871017, "lat": 61.215785}}, "lat": 61.215785}, "key": "7ff2e829-e8d8-4193-9344-45d800e57d04", "shapePoints": [61.215785, -149.871017]}, {"distanceUnit": "m", "distance": 0.0522, "name": "907 Satellite & Wireless Communications", "sourceName": "mqap.ntpois", "resultNumber": 9, "fields": {"mqap_id": "a150fdcf-f57d-47b2-b13b-bae05a291970", "country": "US", "address": "640 Gambell St", "lng": -149.871017, "city": "Anchorage", "group_sic_code_name_ext": "Electronic Equipment & Supplies Retail", "group_sic_code": "573117", "side_of_street": "R", "disp_lng": -149.8712, "phone": "+(1)-(907)-8912078", "group_sic_code_ext": "573117", "group_sic_code_name": "Electronic Equipment & Supplies Retail", "name": "907 Satellite & Wireless Communications", "disp_lat": 61.215785, "state": "AK", "id": "288312340", "postal_code": "99501", "mqap_geography": {"latLng": {"lng": -149.871017, "lat": 61.215785}}, "lat": 61.215785}, "key": "a150fdcf-f57d-47b2-b13b-bae05a291970", "shapePoints": [61.215785, -149.871017]}, {"distanceUnit": "m", "distance": 0.0649, "name": "Arfie's Doggie Day Care", "sourceName": "mqap.ntpois", "resultNumber": 10, "fields": {"mqap_id": "251d9399-8d64-49dc-83fe-9fd2523a1a2e", "country": "US", "address": "535 E 6th Ave", "lng": -149.87371, "city": "Anchorage", "group_sic_code_name_ext": "Pet Services", "group_sic_code": "075210", "side_of_street": "L", "disp_lng": -149.873709, "phone": "+(1)-(907)-9291909", "group_sic_code_ext": "075210", "group_sic_code_name": "Pet Services", "name": "Arfie's Doggie Day Care", "disp_lat": 61.216665, "state": "AK", "id": "284452489", "postal_code": "99501", "mqap_geography": {"latLng": {"lng": -149.87371, "lat": 61.216576}}, "lat": 61.216576}, "key": "251d9399-8d64-49dc-83fe-9fd2523a1a2e", "shapePoints": [61.216576, -149.87371]}], "info": {"copyright": {"imageAltText": "\u00a9 2021 MapQuest, Inc.", "imageUrl": "http://api.mqcdn.com/res/mqlogo.gif", "text": "\u00a9 2021 MapQuest, Inc."}, "messages": [], "statusCode": 0}}