{"hostedData": [{"extraCriteria": "", "columnNames": [], "tableName": "mqap.ntpois"}], "resultsCount": 10, "origin": {"dragPoint": false, "displayLatLng": {"lng": -75.38198, "lat": 40.093249}, "adminArea4": "Montgomery County", "adminArea5": "King of Prussia", "postalCode": "19406", "adminArea1": "US", "adminArea3": "PA", "type": "s", "sideOfStreet": "N", "geocodeQualityCode": "Z1XAA", "adminArea4Type": "County", "linkId": 286274849, "street": "", "adminArea5Type": "City", "geocodeQuality": "ZIP", "adminArea1Type": "Country", "adminArea3Type": "State", "latLng": {"lng": -75.38198, "lat": 40.093249}}, "totalPages": 1, "options": {"kmlStyleUrl": "http://search-b2b.cloud.mapquest.com/kml-default.kml", "shapeFormat": "raw", "maxMatches": 10, "pageSize": 10, "ambiguities": false, "units": "m", "currentPage": 1, "radius": 10}, "searchResults": [{"distanceUnit": "m", "distance": 0, "name": "Roy Rogers", "sourceName": "mqap.ntpois", "resultNumber": 1, "fields": {"mqap_id": "a23a3937-d29f-43be-8b9e-cd319c70728d", "country": "US", "address": "", "lng": -75.38198, "city": "Upper Merion", "group_sic_code_name_ext": "(All) Restaurants", "group_sic_code": "581208", "side_of_street": "N", "disp_lng": -75.38198, "phone": "", "group_sic_code_ext": "581208", "group_sic_code_name": "(All) Restaurants", "name": "Roy Rogers", "disp_lat": 40.093249, "state": "PA", "id": "367658116", "postal_code": "19406", "mqap_geography": {"latLng": {"lng": -75.38198, "lat": 40.093249}}, "lat": 40.093249}, "key": "a23a3937-d29f-43be-8b9e-cd319c70728d", "shapePoints": [40.093249, -75.38198]}, {"distanceUnit": "m", "distance": 0, "name": "Hershey's Ice Cream", "sourceName": "mqap.ntpois", "resultNumber": 2, "fields": {"mqap_id": "71cc90e4-643f-4638-aa12-807ea5c472bd", "country": "US", "address": "", "lng": -75.38198, "city": "Upper Merion", "group_sic_code_name_ext": "Ice Cream Parlors", "group_sic_code": "581203", "side_of_street": "N", "disp_lng": -75.38198, "phone": "", "group_sic_code_ext": "581203", "group_sic_code_name": "Ice Cream Parlors", "name": "Hershey's Ice Cream", "disp_lat": 40.093249, "state": "PA", "id": "362882301", "postal_code": "19406", "mqap_geography": {"latLng": {"lng": -75.38198, "lat": 40.093249}}, "lat": 40.093249}, "key": "71cc90e4-643f-4638-aa12-807ea5c472bd", "shapePoints": [40.093249, -75.38198]}, {"distanceUnit": "m", "distance": 0, "name": "Ukranian Greek Catholic Cemetery", "sourceName": "mqap.ntpois", "resultNumber": 3, "fields": {"mqap_id": "5d81c435-2baa-4ae9-b63b-3150310e616c", "country": "US", "address": "", "lng": -75.38198, "city": "King of Prussia", "group_sic_code_name_ext": "", "group_sic_code": "", "side_of_street": "N", "disp_lng": -75.38198, "phone": "", "group_sic_code_ext": "", "group_sic_code_name": "", "name": "Ukranian Greek Catholic Cemetery", "disp_lat": 40.093249, "state": "PA", "id": "362511755", "postal_code": "19406", "mqap_geography": {"latLng": {"lng": -75.38198, "lat": 40.093249}}, "lat": 40.093249}, "key": "5d81c435-2baa-4ae9-b63b-3150310e616c", "shapePoints": [40.093249, -75.38198]}, {"distanceUnit": "m", "distance": 0, "name": "Roberts Cemetery", "sourceName": "mqap.ntpois", "resultNumber": 4, "fields": {"mqap_id": "a347de64-2371-495b-b795-354d476a3a1a", "country": "US", "address": "", "lng": -75.38198, "city": "King of Prussia", "group_sic_code_name_ext": "", "group_sic_code": "", "side_of_street": "N", "disp_lng": -75.38198, "phone": "", "group_sic_code_ext": "", "group_sic_code_name": "", "name": "Roberts Cemetery", "disp_lat": 40.093249, "state": "PA", "id": "367536755", "postal_code": "19406", "mqap_geography": {"latLng": {"lng": -75.38198, "lat": 40.093249}}, "lat": 40.093249}, "key": "a347de64-2371-495b-b795-354d476a3a1a", "shapePoints": [40.093249, -75.38198]}, {"distanceUnit": "m", "distance": 0, "name": "Sunoco", "sourceName": "mqap.ntpois", "resultNumber": 5, "fields": {"mqap_id": "4c62cca2-7269-4410-8fce-201b9d9cc86c", "country": "US", "address": "4.7 Mile West Of Exit 25", "lng": -75.38198, "city": "King of Prussia", "group_sic_code_name_ext": "Gas Stations", "group_sic_code": "554101", "side_of_street": "N", "disp_lng": -75.38198, "phone": "+(1)-(610)-2652144", "group_sic_code_ext": "554101", "group_sic_code_name": "Gas Stations", "name": "Sunoco", "disp_lat": 40.093249, "state": "PA", "id": "368498581", "postal_code": "19406", "mqap_geography": {"latLng": {"lng": -75.38198, "lat": 40.093249}}, "lat": 40.093249}, "key": "4c62cca2-7269-4410-8fce-201b9d9cc86c", "shapePoints": [40.093249, -75.38198]}, {"distanceUnit": "m", "distance": 0, "name": "Philly Steak & Gyro Co", "sourceName": "mqap.ntpois", "resultNumber": 6, "fields": {"mqap_id": "d1bf7b7c-a6ac-47e5-8e30-cb8474faad5d", "country": "US", "address": "", "lng": -75.38198, "city": "Upper Merion", "group_sic_code_name_ext": "(All) Restaurants", "group_sic_code": "581208", "side_of_street": "N", "disp_lng": -75.38198, "phone": "", "group_sic_code_ext": "581208", "group_sic_code_name": "(All) Restaurants", "name": "Philly Steak & Gyro Co", "disp_lat": 40.093249, "state": "PA", "id": "362587778", "postal_code": "19406", "mqap_geography": {"latLng": {"lng": -75.38198, "lat": 40.093249}}, "lat": 40.093249}, "key": "d1bf7b7c-a6ac-47e5-8e30-cb8474faad5d", "shapePoints": [40.093249, -75.38198]}, {"distanceUnit": "m", "distance": 0, "name": "Valley Forge Memorial Gardens", "sourceName": "mqap.ntpois", "resultNumber": 7, "fields": {"mqap_id": "3259c6b3-b6df-40d9-9d2f-9e2f54535549", "country": "US", "address": "", "lng": -75.38198, "city": "King of Prussia", "group_sic_code_name_ext": "", "group_sic_code": "", "side_of_street": "N", "disp_lng": -75.38198, "phone": "", "group_sic_code_ext": "", "group_sic_code_name": "", "name": "Valley Forge Memorial Gardens", "disp_lat": 40.093249, "state": "PA", "id": "362206225", "postal_code": "19406", "mqap_geography": {"latLng": {"lng": -75.38198, "lat": 40.093249}}, "lat": 40.093249}, "key": "3259c6b3-b6df-40d9-9d2f-9e2f54535549", "shapePoints": [40.093249, -75.38198]}, {"distanceUnit": "m", "distance": 0, "name": "Saint Augustines Cemetery", "sourceName": "mqap.ntpois", "resultNumber": 8, "fields": {"mqap_id": "e7ddf9d8-71c9-49e4-8a74-c6b9b374e1ff", "country": "US", "address": "", "lng": -75.38198, "city": "King of Prussia", "group_sic_code_name_ext": "", "group_sic_code": "", "side_of_street": "N", "disp_lng": -75.38198, "phone": "", "group_sic_code_ext": "", "group_sic_code_name": "", "name": "Saint Augustines Cemetery", "disp_lat": 40.093249, "state": "PA", "id": "362847895", "postal_code": "19406", "mqap_geography": {"latLng": {"lng": -75.38198, "lat": 40.093249}}, "lat": 40.093249}, "key": "e7ddf9d8-71c9-49e4-8a74-c6b9b374e1ff", "shapePoints": [40.093249, -75.38198]}, {"distanceUnit": "m", "distance": 0, "name": "Citibank", "sourceName": "mqap.ntpois", "resultNumber": 9, "fields": {"mqap_id": "1697e889-49cc-4f41-a06d-bfc122d27a12", "country": "US", "address": "Pennsylvania Turnpike, 381 West DeKalb Pike, Milepost 328.4 Wb", "lng": -75.38198, "city": "King of Prussia", "group_sic_code_name_ext": "Banks", "group_sic_code": "602101", "side_of_street": "N", "disp_lng": -75.38198, "phone": "", "group_sic_code_ext": "602101", "group_sic_code_name": "Banks", "name": "Citibank", "disp_lat": 40.093249, "state": "PA", "id": "362252663", "postal_code": "19406", "mqap_geography": {"latLng": {"lng": -75.38198, "lat": 40.093249}}, "lat": 40.093249}, "key": "1697e889-49cc-4f41-a06d-bfc122d27a12", "shapePoints": [40.093249, -75.38198]}, {"distanceUnit": "m", "distance": 0, "name": "Dairy Queen", "sourceName": "mqap.ntpois", "resultNumber": 10, "fields": {"mqap_id": "05a3cea1-e491-4055-bd7b-1ec1be13f2b8", "country": "US", "address": "Vfspg Ctr", "lng": -75.38198, "city": "King of Prussia", "group_sic_code_name_ext": "Ice Cream Parlors", "group_sic_code": "581203", "side_of_street": "N", "disp_lng": -75.38198, "phone": "+(1)-(610)-3372549", "group_sic_code_ext": "581203", "group_sic_code_name": "Ice Cream Parlors", "name": "Dairy Queen", "disp_lat": 40.093249, "state": "PA", "id": "362855250", "postal_code": "19406", "mqap_geography": {"latLng": {"lng": -75.38198, "lat": 40.093249}}, "lat": 40.093249}, "key": "05a3cea1-e491-4055-bd7b-1ec1be13f2b8", "shapePoints": [40.093249, -75.38198]}], "info": {"copyright": {"imageAltText": "\u00a9 2021 MapQuest, Inc.", "imageUrl": "http://api.mqcdn.com/res/mqlogo.gif", "text": "\u00a9 2021 MapQuest, Inc."}, "messages": [], "statusCode": 0}}