{"hostedData": [{"extraCriteria": "", "columnNames": [], "tableName": "mqap.ntpois"}], "resultsCount": 3, "origin": {"dragPoint": false, "displayLatLng": {"lng": -156.614862, "lat": 58.691529}, "adminArea4": "", "adminArea5": "King Salmon", "postalCode": "99613", "adminArea1": "US", "adminArea3": "AK", "type": "s", "sideOfStreet": "N", "geocodeQualityCode": "Z1XAA", "adminArea4Type": "County", "linkId": 286308737, "street": "", "adminArea5Type": "City", "geocodeQuality": "ZIP", "adminArea1Type": "Country", "adminArea3Type": "State", "latLng": {"lng": -156.614862, "lat": 58.691529}}, "totalPages": 1, "options": {"kmlStyleUrl": "http://search-b2b.cloud.mapquest.com/kml-default.kml", "shapeFormat": "raw", "maxMatches": 10, "pageSize": 3, "ambiguities": false, "units": "m", "currentPage": 1, "radius": 10}, "searchResults": [{"distanceUnit": "m", "distance": 0, "name": "Aniakchak National Monument and Preserve", "sourceName": "mqap.ntpois", "resultNumber": 1, "fields": {"mqap_id": "a5a45fa2-b5b6-4a04-aba3-14b361ea6721", "country": "US", "address": "Hospital Rd", "lng": -156.614862, "city": "King Salmon", "group_sic_code_name_ext": "Monuments", "group_sic_code": "599972", "side_of_street": "N", "disp_lng": -156.614862, "phone": "+(1)-(907)-2463305", "group_sic_code_ext": "599972", "group_sic_code_name": "Monuments", "name": "Aniakchak National Monument and Preserve", "disp_lat": 58.691529, "state": "AK", "id": "357595574", "postal_code": "99613", "mqap_geography": {"latLng": {"lng": -156.614862, "lat": 58.691529}}, "lat": 58.691529}, "key": "a5a45fa2-b5b6-4a04-aba3-14b361ea6721", "shapePoints": [58.691529, -156.614862]}, {"distanceUnit": "m", "distance": 0, "name": "Katmai National Park and Preserve", "sourceName": "mqap.ntpois", "resultNumber": 2, "fields": {"mqap_id": "2d515b9f-5902-417f-9b7d-f60e570227f7", "country": "US", "address": "", "lng": -156.614862, "city": "King Salmon", "group_sic_code_name_ext": "Parks", "group_sic_code": "799951", "side_of_street": "N", "disp_lng": -156.614862, "phone": "", "group_sic_code_ext": "799951", "group_sic_code_name": "Parks", "name": "Katmai National Park and Preserve", "disp_lat": 58.691529, "state": "AK", "id": "367607118", "postal_code": "99613", "mqap_geography": {"latLng": {"lng": -156.614862, "lat": 58.691529}}, "lat": 58.691529}, "key": "2d515b9f-5902-417f-9b7d-f60e570227f7", "shapePoints": [58.691529, -156.614862]}, {"distanceUnit": "m", "distance": 2.0367, "name": "King Salmon Airport", "sourceName": "mqap.ntpois", "resultNumber": 3, "fields": {"mqap_id": "4be109db-0c75-48a9-afcc-c1183f53e8c5", "country": "US", "address": "Main St", "lng": -156.6686, "city": "King Salmon", "group_sic_code_name_ext": "Airport Transportation Service", "group_sic_code": "411101", "side_of_street": "L", "disp_lng": -156.6686, "phone": "+(1)-(907)-2463325", "group_sic_code_ext": "411101", "group_sic_code_name": "Airport Transportation Service", "name": "King Salmon Airport", "disp_lat": 58.682414, "state": "AK", "id": "362586245", "postal_code": "99613", "mqap_geography": {"latLng": {"lng": -156.6686, "lat": 58.682414}}, "lat": 58.682414}, "key": "4be109db-0c75-48a9-afcc-c1183f53e8c5", "shapePoints": [58.682414, -156.6686]}], "info": {"copyright": {"imageAltText": "\u00a9 2021 MapQuest, Inc.", "imageUrl": "http://api.mqcdn.com/res/mqlogo.gif", "text": "\u00a9 2021 MapQuest, Inc."}, "messages": [], "statusCode": 0}}