{"hostedData": [{"extraCriteria": "", "columnNames": [], "tableName": "mqap.ntpois"}], "resultsCount": 6, "origin": {"dragPoint": false, "displayLatLng": {"lng": -144.719872, "lat": 62.023652}, "adminArea4": "Valdez-Cordova", "adminArea5": "", "postalCode": "99573", "adminArea1": "US", "adminArea3": "AK", "type": "s", "sideOfStreet": "N", "geocodeQualityCode": "Z1XAA", "adminArea4Type": "County", "linkId": 286308708, "street": "", "adminArea5Type": "City", "geocodeQuality": "ZIP", "adminArea1Type": "Country", "adminArea3Type": "State", "latLng": {"lng": -144.719872, "lat": 62.023652}}, "totalPages": 1, "options": {"kmlStyleUrl": "http://search-b2b.cloud.mapquest.com/kml-default.kml", "shapeFormat": "raw", "maxMatches": 10, "pageSize": 6, "ambiguities": false, "units": "m", "currentPage": 1, "radius": 10}, "searchResults": [{"distanceUnit": "m", "distance": 0, "name": "Chitina Salmon Fishery", "sourceName": "mqap.ntpois", "resultNumber": 1, "fields": {"mqap_id": "fc571824-fa06-4f0b-99e4-ba7fb8c01956", "country": "US", "address": "Unnamed Feature", "lng": -144.719872, "city": "Copper Center", "group_sic_code_name_ext": "Hunting & Fishing Preserves", "group_sic_code": "097101", "side_of_street": "N", "disp_lng": -144.719872, "phone": "", "group_sic_code_ext": "097101", "group_sic_code_name": "Hunting & Fishing Preserves", "name": "Chitina Salmon Fishery", "disp_lat": 62.023652, "state": "AK", "id": "367837866", "postal_code": "99573", "mqap_geography": {"latLng": {"lng": -144.719872, "lat": 62.023652}}, "lat": 62.023652}, "key": "fc571824-fa06-4f0b-99e4-ba7fb8c01956", "shapePoints": [62.023652, -144.719872]}, {"distanceUnit": "m", "distance": 0, "name": "Liberty Falls State Recreation Site", "sourceName": "mqap.ntpois", "resultNumber": 2, "fields": {"mqap_id": "ea935238-2a0d-4934-ae0b-df374b74c30f", "country": "US", "address": "Edgerton Hwy", "lng": -144.719872, "city": "Kenny Lake", "group_sic_code_name_ext": "Parks", "group_sic_code": "799951", "side_of_street": "N", "disp_lng": -144.719872, "phone": "+(1)-(907)-8232223", "group_sic_code_ext": "799951", "group_sic_code_name": "Parks", "name": "Liberty Falls State Recreation Site", "disp_lat": 62.023652, "state": "AK", "id": "366785531", "postal_code": "99573", "mqap_geography": {"latLng": {"lng": -144.719872, "lat": 62.023652}}, "lat": 62.023652}, "key": "ea935238-2a0d-4934-ae0b-df374b74c30f", "shapePoints": [62.023652, -144.719872]}, {"distanceUnit": "m", "distance": 0, "name": "Indian Cemetery", "sourceName": "mqap.ntpois", "resultNumber": 3, "fields": {"mqap_id": "596bee0b-da5b-4f5c-bd00-75648b7801be", "country": "US", "address": "Foot Trl", "lng": -144.719872, "city": "Mendeltna", "group_sic_code_name_ext": "", "group_sic_code": "", "side_of_street": "N", "disp_lng": -144.719872, "phone": "", "group_sic_code_ext": "", "group_sic_code_name": "", "name": "Indian Cemetery", "disp_lat": 62.023652, "state": "AK", "id": "368577261", "postal_code": "99573", "mqap_geography": {"latLng": {"lng": -144.719872, "lat": 62.023652}}, "lat": 62.023652}, "key": "596bee0b-da5b-4f5c-bd00-75648b7801be", "shapePoints": [62.023652, -144.719872]}, {"distanceUnit": "m", "distance": 0, "name": "Squirrel Creek State Recreation Site", "sourceName": "mqap.ntpois", "resultNumber": 4, "fields": {"mqap_id": "70301371-766a-473f-a7a1-3e8b506e3360", "country": "US", "address": "Squirrel Creek State Rec Site Rd", "lng": -144.719872, "city": "Tonsina", "group_sic_code_name_ext": "Parks", "group_sic_code": "799951", "side_of_street": "N", "disp_lng": -144.719872, "phone": "+(1)-(907)-8225932", "group_sic_code_ext": "799951", "group_sic_code_name": "Parks", "name": "Squirrel Creek State Recreation Site", "disp_lat": 62.023652, "state": "AK", "id": "368204649", "postal_code": "99573", "mqap_geography": {"latLng": {"lng": -144.719872, "lat": 62.023652}}, "lat": 62.023652}, "key": "70301371-766a-473f-a7a1-3e8b506e3360", "shapePoints": [62.023652, -144.719872]}, {"distanceUnit": "m", "distance": 0, "name": "Fielding Lake State Recreation Area", "sourceName": "mqap.ntpois", "resultNumber": 5, "fields": {"mqap_id": "780118e8-217b-44b0-844f-f1e310a3de3b", "country": "US", "address": "Foot Trl", "lng": -144.719872, "city": "", "group_sic_code_name_ext": "Parks", "group_sic_code": "799951", "side_of_street": "N", "disp_lng": -144.719872, "phone": "+(1)-(907)-2698400", "group_sic_code_ext": "799951", "group_sic_code_name": "Parks", "name": "Fielding Lake State Recreation Area", "disp_lat": 62.023652, "state": "AK", "id": "362175231", "postal_code": "99573", "mqap_geography": {"latLng": {"lng": -144.719872, "lat": 62.023652}}, "lat": 62.023652}, "key": "780118e8-217b-44b0-844f-f1e310a3de3b", "shapePoints": [62.023652, -144.719872]}, {"distanceUnit": "m", "distance": 0, "name": "Wrangell - Saint Elias National Park & Preserve", "sourceName": "mqap.ntpois", "resultNumber": 6, "fields": {"mqap_id": "2118bf1d-ceb4-4d83-a917-8f8eac683acd", "country": "US", "address": "Airfield Rd", "lng": -144.719872, "city": "Copper Center", "group_sic_code_name_ext": "Parks", "group_sic_code": "799951", "side_of_street": "N", "disp_lng": -144.719872, "phone": "", "group_sic_code_ext": "799951", "group_sic_code_name": "Parks", "name": "Wrangell - Saint Elias National Park & Preserve", "disp_lat": 62.023652, "state": "AK", "id": "361632729", "postal_code": "99573", "mqap_geography": {"latLng": {"lng": -144.719872, "lat": 62.023652}}, "lat": 62.023652}, "key": "2118bf1d-ceb4-4d83-a917-8f8eac683acd", "shapePoints": [62.023652, -144.719872]}], "info": {"copyright": {"imageAltText": "\u00a9 2021 MapQuest, Inc.", "imageUrl": "http://api.mqcdn.com/res/mqlogo.gif", "text": "\u00a9 2021 MapQuest, Inc."}, "messages": [], "statusCode": 0}}