{"hostedData": [{"extraCriteria": "", "columnNames": [], "tableName": "mqap.ntpois"}], "resultsCount": 10, "origin": {"dragPoint": false, "displayLatLng": {"lng": -86.666708, "lat": 46.398689}, "adminArea4": "Alger County", "adminArea5": "Munising", "postalCode": "49862", "adminArea1": "US", "adminArea3": "MI", "type": "s", "sideOfStreet": "N", "geocodeQualityCode": "Z1XAA", "adminArea4Type": "County", "linkId": 286288657, "street": "", "adminArea5Type": "City", "geocodeQuality": "ZIP", "adminArea1Type": "Country", "adminArea3Type": "State", "latLng": {"lng": -86.666708, "lat": 46.398689}}, "totalPages": 1, "options": {"kmlStyleUrl": "http://search-b2b.cloud.mapquest.com/kml-default.kml", "shapeFormat": "raw", "maxMatches": 10, "pageSize": 10, "ambiguities": false, "units": "m", "currentPage": 1, "radius": 10}, "searchResults": [{"distanceUnit": "m", "distance": 0, "name": "Econo Lodge Inn & Suites Munising Area", "sourceName": "mqap.ntpois", "resultNumber": 1, "fields": {"mqap_id": "d958c60c-4566-41d4-adbd-3acc5d8647b1", "country": "US", "address": "10160 M-m28", "lng": -86.666708, "city": "Wetmore", "group_sic_code_name_ext": "Hotels & Motels", "group_sic_code": "701101", "side_of_street": "N", "disp_lng": -86.666708, "phone": "+(1)-(906)-3874864", "group_sic_code_ext": "701101", "group_sic_code_name": "Hotels & Motels", "name": "Econo Lodge Inn & Suites Munising Area", "disp_lat": 46.398689, "state": "MI", "id": "367715519", "postal_code": "49862", "mqap_geography": {"latLng": {"lng": -86.666708, "lat": 46.398689}}, "lat": 46.398689}, "key": "d958c60c-4566-41d4-adbd-3acc5d8647b1", "shapePoints": [46.398689, -86.666708]}, {"distanceUnit": "m", "distance": 0, "name": "Pictured Rocks National Lakeshore", "sourceName": "mqap.ntpois", "resultNumber": 2, "fields": {"mqap_id": "3f7f95d3-3ec1-468c-82a0-126b59824aaa", "country": "US", "address": "N8391 Sandpoint Rd", "lng": -86.666708, "city": "Munising", "group_sic_code_name_ext": "Parks", "group_sic_code": "799951", "side_of_street": "N", "disp_lng": -86.666708, "phone": "", "group_sic_code_ext": "799951", "group_sic_code_name": "Parks", "name": "Pictured Rocks National Lakeshore", "disp_lat": 46.398689, "state": "MI", "id": "361627705", "postal_code": "49862", "mqap_geography": {"latLng": {"lng": -86.666708, "lat": 46.398689}}, "lat": 46.398689}, "key": "3f7f95d3-3ec1-468c-82a0-126b59824aaa", "shapePoints": [46.398689, -86.666708]}, {"distanceUnit": "m", "distance": 0, "name": "Boy Scouts of America", "sourceName": "mqap.ntpois", "resultNumber": 3, "fields": {"mqap_id": "f4012ab7-41d4-4571-8321-1d8a56987f99", "country": "US", "address": "E6350 Doe Lake Rd", "lng": -86.666708, "city": "Munising", "group_sic_code_name_ext": "", "group_sic_code": "", "side_of_street": "N", "disp_lng": -86.666708, "phone": "+(1)-(906)-3871859", "group_sic_code_ext": "", "group_sic_code_name": "", "name": "Boy Scouts of America", "disp_lat": 46.398689, "state": "MI", "id": "367505838", "postal_code": "49862", "mqap_geography": {"latLng": {"lng": -86.666708, "lat": 46.398689}}, "lat": 46.398689}, "key": "f4012ab7-41d4-4571-8321-1d8a56987f99", "shapePoints": [46.398689, -86.666708]}, {"distanceUnit": "m", "distance": 0, "name": "Maple Grove Cemetery", "sourceName": "mqap.ntpois", "resultNumber": 4, "fields": {"mqap_id": "4dceeb27-498c-4da0-8268-894f927a3c81", "country": "US", "address": "", "lng": -86.666708, "city": "", "group_sic_code_name_ext": "", "group_sic_code": "", "side_of_street": "N", "disp_lng": -86.666708, "phone": "", "group_sic_code_ext": "", "group_sic_code_name": "", "name": "Maple Grove Cemetery", "disp_lat": 46.398689, "state": "MI", "id": "368800089", "postal_code": "49862", "mqap_geography": {"latLng": {"lng": -86.666708, "lat": 46.398689}}, "lat": 46.398689}, "key": "4dceeb27-498c-4da0-8268-894f927a3c81", "shapePoints": [46.398689, -86.666708]}, {"distanceUnit": "m", "distance": 0, "name": "AmericInn Munising", "sourceName": "mqap.ntpois", "resultNumber": 5, "fields": {"mqap_id": "63d508b1-d3f6-4ea9-8ae9-20292d7f4520", "country": "US", "address": "E9926 State Hwy M-28 East", "lng": -86.666708, "city": "Wetmore", "group_sic_code_name_ext": "Hotels & Motels", "group_sic_code": "701101", "side_of_street": "N", "disp_lng": -86.666708, "phone": "+(1)-(906)-3872000", "group_sic_code_ext": "701101", "group_sic_code_name": "Hotels & Motels", "name": "AmericInn Munising", "disp_lat": 46.398689, "state": "MI", "id": "367403376", "postal_code": "49862", "mqap_geography": {"latLng": {"lng": -86.666708, "lat": 46.398689}}, "lat": 46.398689}, "key": "63d508b1-d3f6-4ea9-8ae9-20292d7f4520", "shapePoints": [46.398689, -86.666708]}, {"distanceUnit": "m", "distance": 0, "name": "Holiday Inn Express", "sourceName": "mqap.ntpois", "resultNumber": 6, "fields": {"mqap_id": "3b2372e9-8211-4767-888b-664cf719aab8", "country": "US", "address": "E8890 M-28", "lng": -86.666708, "city": "Munising", "group_sic_code_name_ext": "Hotels & Motels", "group_sic_code": "701101", "side_of_street": "N", "disp_lng": -86.666708, "phone": "", "group_sic_code_ext": "701101", "group_sic_code_name": "Hotels & Motels", "name": "Holiday Inn Express", "disp_lat": 46.398689, "state": "MI", "id": "368776095", "postal_code": "49862", "mqap_geography": {"latLng": {"lng": -86.666708, "lat": 46.398689}}, "lat": 46.398689}, "key": "3b2372e9-8211-4767-888b-664cf719aab8", "shapePoints": [46.398689, -86.666708]}, {"distanceUnit": "m", "distance": 0, "name": "Comfort Inn", "sourceName": "mqap.ntpois", "resultNumber": 7, "fields": {"mqap_id": "fb412003-68d6-4d75-b15d-da548880a4ca", "country": "US", "address": "Sr 28 M-28 E", "lng": -86.666708, "city": "Munising", "group_sic_code_name_ext": "Hotels & Motels", "group_sic_code": "701101", "side_of_street": "N", "disp_lng": -86.666708, "phone": "+(1)-(906)-3875292", "group_sic_code_ext": "701101", "group_sic_code_name": "Hotels & Motels", "name": "Comfort Inn", "disp_lat": 46.398689, "state": "MI", "id": "262943370", "postal_code": "49862", "mqap_geography": {"latLng": {"lng": -86.666708, "lat": 46.398689}}, "lat": 46.398689}, "key": "fb412003-68d6-4d75-b15d-da548880a4ca", "shapePoints": [46.398689, -86.666708]}, {"distanceUnit": "m", "distance": 0.7133, "name": "Alger Centennial Ice Arena-Committee", "sourceName": "mqap.ntpois", "resultNumber": 8, "fields": {"mqap_id": "356740c2-efb2-446f-beb8-bb4bdc5cfc3e", "country": "US", "address": "120 W Varnum St", "lng": -86.658566, "city": "Munising", "group_sic_code_name_ext": "Stadiums Arenas & Athletic Fields", "group_sic_code": "794104", "side_of_street": "R", "disp_lng": -86.658566, "phone": "+(1)-(906)-3873169", "group_sic_code_ext": "794104", "group_sic_code_name": "Stadiums Arenas & Athletic Fields", "name": "Alger Centennial Ice Arena-Committee", "disp_lat": 46.407344, "state": "MI", "id": "278467244", "postal_code": "49862", "mqap_geography": {"latLng": {"lng": -86.658566, "lat": 46.407344}}, "lat": 46.407344}, "key": "356740c2-efb2-446f-beb8-bb4bdc5cfc3e", "shapePoints": [46.407344, -86.658566]}, {"distanceUnit": "m", "distance": 0.7166, "name": "Alger County Offices", "sourceName": "mqap.ntpois", "resultNumber": 9, "fields": {"mqap_id": "ee37727a-8567-400b-b4c6-9da90e0ecac7", "country": "US", "address": "101 E Varnum St", "lng": -86.657915, "city": "Munising", "group_sic_code_name_ext": "", "group_sic_code": "", "side_of_street": "L", "disp_lng": -86.657915, "phone": "+(1)-(906)-3875167", "group_sic_code_ext": "", "group_sic_code_name": "", "name": "Alger County Offices", "disp_lat": 46.407093, "state": "MI", "id": "291017523", "postal_code": "49862", "mqap_geography": {"latLng": {"lng": -86.657915, "lat": 46.407093}}, "lat": 46.407093}, "key": "ee37727a-8567-400b-b4c6-9da90e0ecac7", "shapePoints": [46.407093, -86.657915]}, {"distanceUnit": "m", "distance": 0.7166, "name": "Alger County Courthouse", "sourceName": "mqap.ntpois", "resultNumber": 10, "fields": {"mqap_id": "c242b357-d166-417d-9698-4b757ffe9f46", "country": "US", "address": "101 E Varnum St", "lng": -86.657915, "city": "Munising", "group_sic_code_name_ext": "Federal Government General Offices", "group_sic_code": "919901", "side_of_street": "L", "disp_lng": -86.657915, "phone": "+(1)-(906)-3874444", "group_sic_code_ext": "919901", "group_sic_code_name": "Federal Government General Offices", "name": "Alger County Courthouse", "disp_lat": 46.407093, "state": "MI", "id": "6676823", "postal_code": "49862", "mqap_geography": {"latLng": {"lng": -86.657915, "lat": 46.407093}}, "lat": 46.407093}, "key": "c242b357-d166-417d-9698-4b757ffe9f46", "shapePoints": [46.407093, -86.657915]}], "info": {"copyright": {"imageAltText": "\u00a9 2021 MapQuest, Inc.", "imageUrl": "http://api.mqcdn.com/res/mqlogo.gif", "text": "\u00a9 2021 MapQuest, Inc."}, "messages": [], "statusCode": 0}}