{"hostedData": [{"extraCriteria": "", "columnNames": [], "tableName": "mqap.ntpois"}], "resultsCount": 10, "origin": {"dragPoint": false, "displayLatLng": {"lng": -110.36521, "lat": 41.862392}, "adminArea4": "Lincoln County", "adminArea5": "Kemmerer", "postalCode": "83101", "adminArea1": "US", "adminArea3": "WY", "type": "s", "sideOfStreet": "N", "geocodeQualityCode": "Z1XAA", "adminArea4Type": "County", "linkId": 286302563, "street": "", "adminArea5Type": "City", "geocodeQuality": "ZIP", "adminArea1Type": "Country", "adminArea3Type": "State", "latLng": {"lng": -110.36521, "lat": 41.862392}}, "totalPages": 1, "options": {"kmlStyleUrl": "http://search-b2b.cloud.mapquest.com/kml-default.kml", "shapeFormat": "raw", "maxMatches": 10, "pageSize": 10, "ambiguities": false, "units": "m", "currentPage": 1, "radius": 10}, "searchResults": [{"distanceUnit": "m", "distance": 0, "name": "Whitman Cemetery", "sourceName": "mqap.ntpois", "resultNumber": 1, "fields": {"mqap_id": "0b1ea270-87dd-4d33-ad9a-15eb30bbd7c5", "country": "US", "address": "", "lng": -110.36521, "city": "", "group_sic_code_name_ext": "", "group_sic_code": "", "side_of_street": "N", "disp_lng": -110.36521, "phone": "", "group_sic_code_ext": "", "group_sic_code_name": "", "name": "Whitman Cemetery", "disp_lat": 41.862392, "state": "WY", "id": "360080562", "postal_code": "83101", "mqap_geography": {"latLng": {"lng": -110.36521, "lat": 41.862392}}, "lat": 41.862392}, "key": "0b1ea270-87dd-4d33-ad9a-15eb30bbd7c5", "shapePoints": [41.862392, -110.36521]}, {"distanceUnit": "m", "distance": 0, "name": "Hamstork Cemetery", "sourceName": "mqap.ntpois", "resultNumber": 2, "fields": {"mqap_id": "72ec20ca-8204-4bbc-9dbc-e214f8677bf3", "country": "US", "address": "", "lng": -110.36521, "city": "Kemmerer", "group_sic_code_name_ext": "", "group_sic_code": "", "side_of_street": "N", "disp_lng": -110.36521, "phone": "", "group_sic_code_ext": "", "group_sic_code_name": "", "name": "Hamstork Cemetery", "disp_lat": 41.862392, "state": "WY", "id": "360078580", "postal_code": "83101", "mqap_geography": {"latLng": {"lng": -110.36521, "lat": 41.862392}}, "lat": 41.862392}, "key": "72ec20ca-8204-4bbc-9dbc-e214f8677bf3", "shapePoints": [41.862392, -110.36521]}, {"distanceUnit": "m", "distance": 0, "name": "Best Western", "sourceName": "mqap.ntpois", "resultNumber": 3, "fields": {"mqap_id": "93fe1005-3f19-4757-b248-db7335cca19b", "country": "US", "address": "760 Highway 189/30", "lng": -110.36521, "city": "Kemmerer", "group_sic_code_name_ext": "Hotels & Motels", "group_sic_code": "701101", "side_of_street": "N", "disp_lng": -110.36521, "phone": "+(1)-(307)-8773388", "group_sic_code_ext": "701101", "group_sic_code_name": "Hotels & Motels", "name": "Best Western", "disp_lat": 41.862392, "state": "WY", "id": "360077065", "postal_code": "83101", "mqap_geography": {"latLng": {"lng": -110.36521, "lat": 41.862392}}, "lat": 41.862392}, "key": "93fe1005-3f19-4757-b248-db7335cca19b", "shapePoints": [41.862392, -110.36521]}, {"distanceUnit": "m", "distance": 7.696, "name": "Eir Electric Of Wyoming", "sourceName": "mqap.ntpois", "resultNumber": 4, "fields": {"mqap_id": "5b7fca05-6685-4f60-842a-287a525ca54d", "country": "US", "address": "43129 Us Highway 189", "lng": -110.51391, "city": "Kemmerer", "group_sic_code_name_ext": "Telephone Companies", "group_sic_code": "481304", "side_of_street": "R", "disp_lng": -110.513452, "phone": "+(1)-(307)-8775581", "group_sic_code_ext": "481304", "group_sic_code_name": "Telephone Companies", "name": "Eir Electric Of Wyoming", "disp_lat": 41.873353, "state": "WY", "id": "360062384", "postal_code": "83101", "mqap_geography": {"latLng": {"lng": -110.51391, "lat": 41.871334}}, "lat": 41.871334}, "key": "5b7fca05-6685-4f60-842a-287a525ca54d", "shapePoints": [41.871334, -110.51391]}, {"distanceUnit": "m", "distance": 9.1168, "name": "Moose Hollow Photography", "sourceName": "mqap.ntpois", "resultNumber": 5, "fields": {"mqap_id": "cc6e480b-03cc-479e-ad4e-80908eb8a319", "country": "US", "address": "908 State Highway 233", "lng": -110.535496, "city": "Kemmerer", "group_sic_code_name_ext": "Photography", "group_sic_code": "722121", "side_of_street": "L", "disp_lng": -110.530614, "phone": "+(1)-(307)-8778859", "group_sic_code_ext": "722121", "group_sic_code_name": "Photography", "name": "Moose Hollow Photography", "disp_lat": 41.82197, "state": "WY", "id": "360059566", "postal_code": "83101", "mqap_geography": {"latLng": {"lng": -110.535496, "lat": 41.827227}}, "lat": 41.827227}, "key": "cc6e480b-03cc-479e-ad4e-80908eb8a319", "shapePoints": [41.827227, -110.535496]}, {"distanceUnit": "m", "distance": 9.3091, "name": "Kemmerer Municipal Airport", "sourceName": "mqap.ntpois", "resultNumber": 6, "fields": {"mqap_id": "a4c84f48-bc67-4940-8aad-d9adf22a87fd", "country": "US", "address": "County Road 234", "lng": -110.538017, "city": "Kemmerer", "group_sic_code_name_ext": "Airport Transportation Service", "group_sic_code": "411101", "side_of_street": "L", "disp_lng": -110.538017, "phone": "+(1)-(307)-8282370", "group_sic_code_ext": "411101", "group_sic_code_name": "Airport Transportation Service", "name": "Kemmerer Municipal Airport", "disp_lat": 41.823714, "state": "WY", "id": "360067847", "postal_code": "83101", "mqap_geography": {"latLng": {"lng": -110.538017, "lat": 41.823714}}, "lat": 41.823714}, "key": "a4c84f48-bc67-4940-8aad-d9adf22a87fd", "shapePoints": [41.823714, -110.538017]}, {"distanceUnit": "m", "distance": 9.3164, "name": "Pizza Hut", "sourceName": "mqap.ntpois", "resultNumber": 7, "fields": {"mqap_id": "5a472b90-8003-4063-9ddf-6e9ac31817a7", "country": "US", "address": "335 US Highway 189", "lng": -110.532451, "city": "Kemmerer", "group_sic_code_name_ext": "", "group_sic_code": "", "side_of_street": "R", "disp_lng": -110.532451, "phone": "+(1)-(307)-8771111", "group_sic_code_ext": "", "group_sic_code_name": "", "name": "Pizza Hut", "disp_lat": 41.811598, "state": "WY", "id": "360061111", "postal_code": "83101", "mqap_geography": {"latLng": {"lng": -110.532451, "lat": 41.811598}}, "lat": 41.811598}, "key": "5a472b90-8003-4063-9ddf-6e9ac31817a7", "shapePoints": [41.811598, -110.532451]}, {"distanceUnit": "m", "distance": 9.3863, "name": "Chevron", "sourceName": "mqap.ntpois", "resultNumber": 8, "fields": {"mqap_id": "c64ee570-e4c7-484f-9bf0-d0ca28372544", "country": "US", "address": "Us Hwy 30/189", "lng": -110.532993, "city": "Diamondville", "group_sic_code_name_ext": "Gas Stations", "group_sic_code": "554101", "side_of_street": "L", "disp_lng": -110.532993, "phone": "+(1)-(307)-8776784", "group_sic_code_ext": "554101", "group_sic_code_name": "Gas Stations", "name": "Chevron", "disp_lat": 41.809928, "state": "WY", "id": "360058521", "postal_code": "83101", "mqap_geography": {"latLng": {"lng": -110.532993, "lat": 41.809928}}, "lat": 41.809928}, "key": "c64ee570-e4c7-484f-9bf0-d0ca28372544", "shapePoints": [41.809928, -110.532993]}, {"distanceUnit": "m", "distance": 9.4082, "name": "South Lincoln Training & Event Center", "sourceName": "mqap.ntpois", "resultNumber": 9, "fields": {"mqap_id": "5537c42f-975e-4fa9-ad2a-ba1192b67c86", "country": "US", "address": "215 State Highway 233", "lng": -110.534754, "city": "Kemmerer", "group_sic_code_name_ext": "", "group_sic_code": "", "side_of_street": "R", "disp_lng": -110.535509, "phone": "+(1)-(307)-8284083", "group_sic_code_ext": "", "group_sic_code_name": "", "name": "South Lincoln Training & Event Center", "disp_lat": 41.812255, "state": "WY", "id": "360057219", "postal_code": "83101", "mqap_geography": {"latLng": {"lng": -110.534754, "lat": 41.81232}}, "lat": 41.81232}, "key": "5537c42f-975e-4fa9-ad2a-ba1192b67c86", "shapePoints": [41.81232, -110.534754]}, {"distanceUnit": "m", "distance": 9.4205, "name": "Sinclair", "sourceName": "mqap.ntpois", "resultNumber": 10, "fields": {"mqap_id": "92cfa50c-4f25-4a63-96aa-496798df66fd", "country": "US", "address": "304 US Highway 189", "lng": -110.533373, "city": "Kemmerer", "group_sic_code_name_ext": "Gas Stations", "group_sic_code": "554101", "side_of_street": "L", "disp_lng": -110.533373, "phone": "+(1)-(307)-8779711", "group_sic_code_ext": "554101", "group_sic_code_name": "Gas Stations", "name": "Sinclair", "disp_lat": 41.809325, "state": "WY", "id": "360079706", "postal_code": "83101", "mqap_geography": {"latLng": {"lng": -110.533373, "lat": 41.809325}}, "lat": 41.809325}, "key": "92cfa50c-4f25-4a63-96aa-496798df66fd", "shapePoints": [41.809325, -110.533373]}], "info": {"copyright": {"imageAltText": "\u00a9 2021 MapQuest, Inc.", "imageUrl": "http://api.mqcdn.com/res/mqlogo.gif", "text": "\u00a9 2021 MapQuest, Inc."}, "messages": [], "statusCode": 0}}